{
  "id": "67b290d5-3478-4f23-b601-2f8fb71ba803",
  "name": "Tokyo DisneySea",
  "entityType": "PARK",
  "timezone": "Asia/Tokyo",
  "children": [
    {
      "id": "c0224e78-abf6-4f89-b0d4-38647a98dd4d",
      "name": "Fairy Tinker Bell's Busy Buggies",
      "entityType": "ATTRACTION",
      "externalId": "258",
      "parentId": "67b290d5-3478-4f23-b601-2f8fb71ba803",
      "slug": null,
      "location": {
        "longitude": 139.87818617373702,
        "latitude": 35.62862210867011
      }
    },
    {
      "id": "7673220d-6762-42b7-94f6-b39480ca78c2",
      "name": "Sparkling Jubilee Celebration",
      "entityType": "SHOW",
      "externalId": "7404",
      "parentId": "67b290d5-3478-4f23-b601-2f8fb71ba803",
      "slug": null,
      "location": {
        "longitude": 139.88630354404452,
        "latitude": 35.626009185039855
      }
    },
    {
      "id": "a6857582-e5a2-42a6-bac9-12b49625c82b",
      "name": "The Groovy Jammin' Chefs",
      "entityType": "SHOW",
      "externalId": "941",
      "parentId": "67b290d5-3478-4f23-b601-2f8fb71ba803",
      "slug": null,
      "location": {
        "longitude": 139.88755010068417,
        "latitude": 35.62399220467725
      }
    },
    {
      "id": "204f6d47-d004-42d7-b1a0-9f0dbf66cb30",
      "name": "Special Image Projection: Sparkling Jubilee Night",
      "entityType": "SHOW",
      "externalId": "7405",
      "parentId": "67b290d5-3478-4f23-b601-2f8fb71ba803",
      "slug": null,
      "location": {
        "longitude": 139.88763827830553,
        "latitude": 35.626672234759866
      }
    },
    {
      "id": "6e44f5c0-f996-45ad-aa7e-9738df6a6047",
      "name": "Fortress Explorations",
      "entityType": "ATTRACTION",
      "externalId": "244",
      "parentId": "67b290d5-3478-4f23-b601-2f8fb71ba803",
      "slug": null,
      "location": {
        "longitude": 139.88508984446526,
        "latitude": 35.6255554302128
      }
    },
    {
      "id": "f66e072d-8bab-48e5-b8cf-6d1947bd291b",
      "name": "Indiana Jones Adventure®: Temple of the Crystal Skull",
      "entityType": "ATTRACTION",
      "externalId": "222",
      "parentId": "67b290d5-3478-4f23-b601-2f8fb71ba803",
      "slug": null,
      "location": {
        "longitude": 139.8813008889556,
        "latitude": 35.62672183381914
      }
    },
    {
      "id": "9fb0c97c-ebf7-4c25-8ea7-a3f4fe2aa9ec",
      "name": "Anna and Elsa's Frozen Journey",
      "entityType": "ATTRACTION",
      "externalId": "255",
      "parentId": "67b290d5-3478-4f23-b601-2f8fb71ba803",
      "slug": null,
      "location": {
        "longitude": 139.87785626202822,
        "latitude": 35.629584628475655
      }
    },
    {
      "id": "5449e9da-ee4c-47d8-a60a-8a964b94c32d",
      "name": "Big City Vehicles",
      "entityType": "ATTRACTION",
      "externalId": "233",
      "parentId": "67b290d5-3478-4f23-b601-2f8fb71ba803",
      "slug": null,
      "location": {
        "longitude": 139.88691466686,
        "latitude": 35.6242965815547
      }
    },
    {
      "id": "71943126-e4ac-49c5-ac61-ac1687ad33af",
      "name": "Turtle Talk",
      "entityType": "ATTRACTION",
      "externalId": "246",
      "parentId": "67b290d5-3478-4f23-b601-2f8fb71ba803",
      "slug": null,
      "location": {
        "longitude": 139.88743007183075,
        "latitude": 35.62352808214635
      }
    },
    {
      "id": "a674e149-8ae3-4338-b1e3-c9f6b804f475",
      "name": "Ariel's Playground",
      "entityType": "ATTRACTION",
      "externalId": "202",
      "parentId": "67b290d5-3478-4f23-b601-2f8fb71ba803",
      "slug": null,
      "location": {
        "longitude": 139.8828894272447,
        "latitude": 35.626821849411044
      }
    },
    {
      "id": "2d56558a-d4d2-4f79-898c-178c2c20cf67",
      "name": "Flounder's Flying Fish Coaster",
      "entityType": "ATTRACTION",
      "externalId": "237",
      "parentId": "67b290d5-3478-4f23-b601-2f8fb71ba803",
      "slug": null,
      "location": {
        "longitude": 139.882475240359,
        "latitude": 35.6272085852982
      }
    },
    {
      "id": "dd942cd2-b364-4262-af12-ca1a5012528b",
      "name": "Raging Spirits",
      "entityType": "ATTRACTION",
      "externalId": "242",
      "parentId": "67b290d5-3478-4f23-b601-2f8fb71ba803",
      "slug": null,
      "location": {
        "longitude": 139.880868678805,
        "latitude": 35.6278781873977
      }
    },
    {
      "id": "179e4e82-26ed-4b04-bf21-f03808b61df4",
      "name": "Nemo & Friends SeaRider",
      "entityType": "ATTRACTION",
      "externalId": "247",
      "parentId": "67b290d5-3478-4f23-b601-2f8fb71ba803",
      "slug": null,
      "location": {
        "longitude": 139.882913798472,
        "latitude": 35.625047858192
      }
    },
    {
      "id": "2daf12ac-21fd-4bfd-bbf6-0c98bed03e8f",
      "name": "DisneySea Electric Railway (American Waterfront)",
      "entityType": "ATTRACTION",
      "externalId": "232",
      "parentId": "67b290d5-3478-4f23-b601-2f8fb71ba803",
      "slug": null,
      "location": {
        "longitude": 139.88761246204376,
        "latitude": 35.6246996933813
      }
    },
    {
      "id": "c8744918-42c0-427d-8947-c3dbd1abf8d5",
      "name": "DisneySea Electric Railway (Port Discovery)",
      "entityType": "ATTRACTION",
      "externalId": "231",
      "parentId": "67b290d5-3478-4f23-b601-2f8fb71ba803",
      "slug": null,
      "location": {
        "longitude": 139.883069,
        "latitude": 35.625417
      }
    },
    {
      "id": "c8526be3-e82c-4692-ae44-e8f2d1142c8a",
      "name": "Journey to the Center of the Earth",
      "entityType": "ATTRACTION",
      "externalId": "223",
      "parentId": "67b290d5-3478-4f23-b601-2f8fb71ba803",
      "slug": null,
      "location": {
        "longitude": 139.88440346587,
        "latitude": 35.6255910986182
      }
    },
    {
      "id": "7afc3143-befb-4a61-9c86-8d6869eb2ce3",
      "name": "DisneySea Transit Steamer Line (Mediterranean Harbor)",
      "entityType": "ATTRACTION",
      "externalId": "227",
      "parentId": "67b290d5-3478-4f23-b601-2f8fb71ba803",
      "slug": null,
      "location": {
        "longitude": 139.885981612296,
        "latitude": 35.6265726112574
      }
    },
    {
      "id": "de24aae5-66b9-469f-91f6-ef6c3f3b665c",
      "name": "DisneySea Transit Steamer Line (Lost River Delta)",
      "entityType": "ATTRACTION",
      "externalId": "229",
      "parentId": "67b290d5-3478-4f23-b601-2f8fb71ba803",
      "slug": null,
      "location": {
        "longitude": 139.881911945467,
        "latitude": 35.6268354163113
      }
    },
    {
      "id": "2cdcda60-b78a-4469-a659-742ead3145be",
      "name": "Duffy and Friends’ Wonderful Friendship",
      "entityType": "SHOW",
      "externalId": "7601",
      "parentId": "67b290d5-3478-4f23-b601-2f8fb71ba803",
      "slug": null,
      "location": {
        "longitude": 139.884998856837,
        "latitude": 35.624503542533
      }
    },
    {
      "id": "dba6f7f9-e031-4ae0-8926-cb063d42e391",
      "name": "Sky Full of Colors (Tokyo DisneySea)",
      "entityType": "SHOW",
      "externalId": "7801",
      "parentId": "67b290d5-3478-4f23-b601-2f8fb71ba803",
      "slug": null,
      "location": {
        "longitude": null,
        "latitude": null
      }
    },
    {
      "id": "af936032-09bb-4b4f-996d-bedf400056b0",
      "name": "Believe! Sea of Dreams",
      "entityType": "SHOW",
      "externalId": "967",
      "parentId": "67b290d5-3478-4f23-b601-2f8fb71ba803",
      "slug": null,
      "location": {
        "longitude": 139.8864956572652,
        "latitude": 35.62627244341672
      }
    },
    {
      "id": "3dfa76fb-dbaf-4882-ab65-f9e5865d52e3",
      "name": "Dance the Globe!",
      "entityType": "SHOW",
      "externalId": "7604",
      "parentId": "67b290d5-3478-4f23-b601-2f8fb71ba803",
      "slug": null,
      "location": {
        "longitude": 139.8876902461052,
        "latitude": 35.62438383151694
      }
    },
    {
      "id": "e8c15bc6-aaab-44ef-8285-1d92ebd2c47d",
      "name": "Peter Pan's Never Land Adventure",
      "entityType": "ATTRACTION",
      "externalId": "257",
      "parentId": "67b290d5-3478-4f23-b601-2f8fb71ba803",
      "slug": null,
      "location": {
        "longitude": 139.87886779010296,
        "latitude": 35.62827601292893
      }
    },
    {
      "id": "44df35ec-28cb-4465-9ae1-95a4d6445a82",
      "name": "The Leonardo Challenge",
      "entityType": "ATTRACTION",
      "externalId": "245",
      "parentId": "67b290d5-3478-4f23-b601-2f8fb71ba803",
      "slug": null,
      "location": {
        "longitude": 139.88519847393036,
        "latitude": 35.62585711614147
      }
    },
    {
      "id": "2159960b-4f42-4974-93be-7519816de45d",
      "name": "Aquatopia",
      "entityType": "ATTRACTION",
      "externalId": "234",
      "parentId": "67b290d5-3478-4f23-b601-2f8fb71ba803",
      "slug": null,
      "location": {
        "longitude": 139.883183187445,
        "latitude": 35.6247127830639
      }
    },
    {
      "id": "58815e8e-7c01-4a42-8a00-1bd1c82a0252",
      "name": "Scuttle's Scooters",
      "entityType": "ATTRACTION",
      "externalId": "238",
      "parentId": "67b290d5-3478-4f23-b601-2f8fb71ba803",
      "slug": null,
      "location": {
        "longitude": 139.883078642146,
        "latitude": 35.6271543327852
      }
    },
    {
      "id": "abb5d6ec-469e-4ab0-8685-5f04e9749653",
      "name": "Toy Story Mania!",
      "entityType": "ATTRACTION",
      "externalId": "218",
      "parentId": "67b290d5-3478-4f23-b601-2f8fb71ba803",
      "slug": null,
      "location": {
        "longitude": 139.8889797180891,
        "latitude": 35.62469560544452
      }
    },
    {
      "id": "2ca8f848-b8e2-4ba5-aa6e-e0fb37e85d0b",
      "name": "Venetian Gondolas",
      "entityType": "ATTRACTION",
      "externalId": "230",
      "parentId": "67b290d5-3478-4f23-b601-2f8fb71ba803",
      "slug": null,
      "location": {
        "longitude": 139.887762889249,
        "latitude": 35.6259298285838
      }
    },
    {
      "id": "c6c0d34d-531a-40d9-b711-3497fd53c28b",
      "name": "Jumpin' Jellyfish",
      "entityType": "ATTRACTION",
      "externalId": "239",
      "parentId": "67b290d5-3478-4f23-b601-2f8fb71ba803",
      "slug": null,
      "location": {
        "longitude": 139.88326594233513,
        "latitude": 35.62646975036898
      }
    },
    {
      "id": "f37d7fe8-169f-459d-86f3-4843655358bd",
      "name": "Blowfish Balloon Race",
      "entityType": "ATTRACTION",
      "externalId": "240",
      "parentId": "67b290d5-3478-4f23-b601-2f8fb71ba803",
      "slug": null,
      "location": {
        "longitude": 139.882870715008,
        "latitude": 35.6264518437802
      }
    },
    {
      "id": "7594d3f2-b3d1-47a0-b64f-8bc01d373830",
      "name": "The Whirlpool",
      "entityType": "ATTRACTION",
      "externalId": "241",
      "parentId": "67b290d5-3478-4f23-b601-2f8fb71ba803",
      "slug": null,
      "location": {
        "longitude": 139.88308019936085,
        "latitude": 35.62673436984025
      }
    },
    {
      "id": "abbf5b3e-94e5-420a-8257-34594cd9d590",
      "name": "Jasmine's Flying Carpets",
      "entityType": "ATTRACTION",
      "externalId": "220",
      "parentId": "67b290d5-3478-4f23-b601-2f8fb71ba803",
      "slug": null,
      "location": {
        "longitude": 139.88111279904845,
        "latitude": 35.62836131067987
      }
    },
    {
      "id": "c15da0f5-9668-48ee-b93a-8b737b6acf5b",
      "name": "20,000 Leagues Under the Sea",
      "entityType": "ATTRACTION",
      "externalId": "224",
      "parentId": "67b290d5-3478-4f23-b601-2f8fb71ba803",
      "slug": null,
      "location": {
        "longitude": 139.884609918815,
        "latitude": 35.6264475273713
      }
    },
    {
      "id": "dcad67fe-76bb-4df2-bf5b-aaf70e8efc12",
      "name": "The Magic Lamp Theater",
      "entityType": "ATTRACTION",
      "externalId": "226",
      "parentId": "67b290d5-3478-4f23-b601-2f8fb71ba803",
      "slug": null,
      "location": {
        "longitude": 139.882941702789,
        "latitude": 35.6284895589094
      }
    },
    {
      "id": "70c16669-c9ba-4f83-bd25-3cd9ea5a0b0c",
      "name": "Mermaid Lagoon Theater",
      "entityType": "ATTRACTION",
      "externalId": "221",
      "parentId": "67b290d5-3478-4f23-b601-2f8fb71ba803",
      "slug": null,
      "location": {
        "longitude": 139.88298565149307,
        "latitude": 35.6262582721804
      }
    },
    {
      "id": "3407ebac-c575-4c31-b794-1d271014d303",
      "name": "Soaring: Fantastic Flight",
      "entityType": "ATTRACTION",
      "externalId": "219",
      "parentId": "67b290d5-3478-4f23-b601-2f8fb71ba803",
      "slug": null,
      "location": {
        "longitude": 139.8854412138462,
        "latitude": 35.627553294786416
      }
    },
    {
      "id": "8dbc5d52-ef41-406d-aaad-eb2e6bb3eaea",
      "name": "DisneySea Transit Steamer Line (American Waterfront)",
      "entityType": "ATTRACTION",
      "externalId": "228",
      "parentId": "67b290d5-3478-4f23-b601-2f8fb71ba803",
      "slug": null,
      "location": {
        "longitude": 139.885572139266,
        "latitude": 35.6241471342299
      }
    },
    {
      "id": "4ca7254c-7abc-4e52-82e0-9c562c096494",
      "name": "Tower of Terror",
      "entityType": "ATTRACTION",
      "externalId": "243",
      "parentId": "67b290d5-3478-4f23-b601-2f8fb71ba803",
      "slug": null,
      "location": {
        "longitude": 139.888091,
        "latitude": 35.6241
      }
    },
    {
      "id": "0724ee20-d1ba-45c5-9261-621d7449ca57",
      "name": "Dreams Take Flight",
      "entityType": "SHOW",
      "externalId": "7602",
      "parentId": "67b290d5-3478-4f23-b601-2f8fb71ba803",
      "slug": null,
      "location": {
        "longitude": 139.882297,
        "latitude": 35.625797
      }
    },
    {
      "id": "76aed95a-dce8-4d03-8c2a-8ad69b3d0d4a",
      "name": "Caravan Carousel",
      "entityType": "ATTRACTION",
      "externalId": "236",
      "parentId": "67b290d5-3478-4f23-b601-2f8fb71ba803",
      "slug": null,
      "location": {
        "longitude": 139.883109028621,
        "latitude": 35.628281915719
      }
    },
    {
      "id": "63ef07eb-9bfb-4782-885e-cfd08ced82f0",
      "name": "Sindbad's Storybook Voyage",
      "entityType": "ATTRACTION",
      "externalId": "235",
      "parentId": "67b290d5-3478-4f23-b601-2f8fb71ba803",
      "slug": null,
      "location": {
        "longitude": 139.88127171993256,
        "latitude": 35.62851173971851
      }
    },
    {
      "id": "10b5b89e-02a6-4456-9ddd-69e06c2bded4",
      "name": "Rapunzel's Lantern Festival",
      "entityType": "ATTRACTION",
      "externalId": "256",
      "parentId": "67b290d5-3478-4f23-b601-2f8fb71ba803",
      "slug": null,
      "location": {
        "longitude": 139.87902402877808,
        "latitude": 35.62908238643292
      }
    }
  ]
}